{"items":[{"icao":"VABB","iata":"BOM","name":"Mumbai, Chhatrapati Shivaji","shortName":"Chhatrapati Shivaji","municipalityName":"Mumbai","location":{"lat":19.0887,"lon":72.8679},"countryCode":"IN"}]}"icao":"KFAR","iata":"FAR","name":"Fargo, Hector","shortName":"Hector","municipalityName":"Fargo","location":{"lat":46.9207,"lon":-96.8158},"countryCode":"US"},{"icao":"KVCT","iata":"VCT","name":"Victoria, Victoria Regional","shortName":"Regional","municipalityName":"Victoria","location":{"lat":28.8526,"lon":-96.9185},"countryCode":"US"},{"icao":"CYYZ","iata":"YYZ","name":"Toronto, Lester B. Pearson","shortName":"Lester B. Pearson","municipalityName":"Toronto","location":{"lat":43.6772,"lon":-79.6306},"countryCode":"CA"},{"icao":"EFKE","iata":"KEM","name":"Kemi / Tornio, Kemi-Tornio","shortName":"Kemi-Tornio","municipalityName":"Kemi / Tornio","location":{"lat":65.7787,"lon":24.5821},"countryCode":"FI"},{"icao":"KAST","iata":"AST","name":"Astoria, Astoria Regional","shortName":"Regional","municipalityName":"Astoria","location":{"lat":46.158,"lon":-123.879},"countryCode":"US"},{"icao":"KVCV","iata":"VCV","name":"Victorville, Southern California Logistics","shortName":"Southern California Logistics","municipalityName":"Victorville","location":{"lat":34.5975,"lon":-117.383},"countryCode":"US"},{"icao":"FVFA","iata":"VFA","name":"Victoria Falls","shortName":"Victoria Falls","municipalityName":"Victoria Falls","location":{"lat":-18.0959,"lon":25.839},"countryCode":"ZW"},{"icao":"NVSD","iata":"TOH","name":"Loh/Linua, Torres Airstrip","shortName":"Torres Airstrip","municipalityName":"Loh/Linua","location":{"lat":-13.328,"lon":166.638},"countryCode":"VU"},{"icao":"ESST","iata":"TYF","name":"Torsby","location":{"lat":60.1576,"lon":12.991299},"countryCode":"SE"}]}